{"type":"FeatureCollection","features":[{"type":"Feature","properties":{"Name":"Charlotte Douglas International Airport","State":"North Carolina","State Abv":"NC","Size":"large_airport","Identifier":"KCLT","Elevation":748},"geometry":{"type":"Point","coordinates":[-80.94309998,35.2140007]}},{"type":"Feature","properties":{"Name":"Raleigh Durham International Airport","State":"North Carolina","State Abv":"NC","Size":"large_airport","Identifier":"KRDU","Elevation":435},"geometry":{"type":"Point","coordinates":[-78.78749847,35.87760162]}},{"type":"Feature","properties":{"Name":"Piedmont Triad International Airport","State":"North Carolina","State Abv":"NC","Size":"medium_airport","Identifier":"KGSO","Elevation":925},"geometry":{"type":"Point","coordinates":[-79.937302,36.097801]}},{"type":"Feature","properties":{"Name":"Asheville Regional Airport","State":"North Carolina","State Abv":"NC","Size":"medium_airport","Identifier":"KAVL","Elevation":2165},"geometry":{"type":"Point","coordinates":[-82.541801,35.436199]}},{"type":"Feature","properties":{"Name":"Wilmington International Airport","State":"North Carolina","State Abv":"NC","Size":"medium_airport","Identifier":"KILM","Elevation":32},"geometry":{"type":"Point","coordinates":[-77.90260315,34.27059937]}},{"type":"Feature","properties":{"Name":"Fayetteville Regional Airport - Grannis Field","State":"North Carolina","State Abv":"NC","Size":"medium_airport","Identifier":"KFAY","Elevation":189},"geometry":{"type":"Point","coordinates":[-78.880302,34.991199]}},{"type":"Feature","properties":{"Name":"Concord-Padgett Regional Airport","State":"North Carolina","State Abv":"NC","Size":"medium_airport","Identifier":"KJQF","Elevation":705},"geometry":{"type":"Point","coordinates":[-80.709099,35.387798]}},{"type":"Feature","properties":{"Name":"Smith Reynolds Airport","State":"North Carolina","State Abv":"NC","Size":"medium_airport","Identifier":"KINT","Elevation":969},"geometry":{"type":"Point","coordinates":[-80.22200012,36.13370132]}},{"type":"Feature","properties":{"Name":"Hickory Regional Airport","State":"North Carolina","State Abv":"NC","Size":"medium_airport","Identifier":"KHKY","Elevation":1190},"geometry":{"type":"Point","coordinates":[-81.38950348,35.74110031]}},{"type":"Feature","properties":{"Name":"Coastal Carolina Regional Airport","State":"North Carolina","State Abv":"NC","Size":"medium_airport","Identifier":"KEWN","Elevation":18},"geometry":{"type":"Point","coordinates":[-77.04290009,35.07300186]}},{"type":"Feature","properties":{"Name":"Kinston Regional Jetport At Stallings Field","State":"North Carolina","State Abv":"NC","Size":"medium_airport","Identifier":"KISO","Elevation":93},"geometry":{"type":"Point","coordinates":[-77.6088028,35.33140183]}},{"type":"Feature","properties":{"Name":"Pitt Greenville Airport","State":"North Carolina","State Abv":"NC","Size":"medium_airport","Identifier":"KPGV","Elevation":26},"geometry":{"type":"Point","coordinates":[-77.38529968,35.6352005]}},{"type":"Feature","properties":{"Name":"Albert J Ellis Airport","State":"North Carolina","State Abv":"NC","Size":"medium_airport","Identifier":"KOAJ","Elevation":94},"geometry":{"type":"Point","coordinates":[-77.612099,34.829201]}},{"type":"Feature","properties":{"Name":"Elizabeth City Regional Airport & Coast Guard Air Station","State":"North Carolina","State Abv":"NC","Size":"medium_airport","Identifier":"KECG","Elevation":11},"geometry":{"type":"Point","coordinates":[-76.174599,36.260601]}},{"type":"Feature","properties":{"Name":"Rocky Mount Wilson Regional Airport","State":"North Carolina","State Abv":"NC","Size":"medium_airport","Identifier":"KRWI","Elevation":159},"geometry":{"type":"Point","coordinates":[-77.89189911,35.85630035]}},{"type":"Feature","properties":{"Name":"Lumberton Regional Airport","State":"North Carolina","State Abv":"NC","Size":"medium_airport","Identifier":"KLBT","Elevation":126},"geometry":{"type":"Point","coordinates":[-79.05940247,34.60990143]}},{"type":"Feature","properties":{"Name":"Cherry Point MCAS /Cunningham Field/","State":"North Carolina","State Abv":"NC","Size":"medium_airport","Identifier":"KNKT","Elevation":29},"geometry":{"type":"Point","coordinates":[-76.88069916,34.90090179]}},{"type":"Feature","properties":{"Name":"Pope Field","State":"North Carolina","State Abv":"NC","Size":"medium_airport","Identifier":"KPOB","Elevation":217},"geometry":{"type":"Point","coordinates":[-79.01450348,35.17089844]}},{"type":"Feature","properties":{"Name":"Simmons Army Air Field","State":"North Carolina","State Abv":"NC","Size":"medium_airport","Identifier":"KFBG","Elevation":244},"geometry":{"type":"Point","coordinates":[-78.93669891,35.13180161]}},{"type":"Feature","properties":{"Name":"Seymour Johnson Air Force Base","State":"North Carolina","State Abv":"NC","Size":"medium_airport","Identifier":"KGSB","Elevation":109},"geometry":{"type":"Point","coordinates":[-77.960602,35.339401]}},{"type":"Feature","properties":{"Name":"MCAS New River / McCutcheon Field","State":"North Carolina","State Abv":"NC","Size":"medium_airport","Identifier":"KNCA","Elevation":26},"geometry":{"type":"Point","coordinates":[-77.439697,34.708401]}},{"type":"Feature","properties":{"Name":"First Flight Airport","State":"North Carolina","State Abv":"NC","Size":"small_airport","Identifier":"KFFA","Elevation":13},"geometry":{"type":"Point","coordinates":[-75.6713028,36.01819992]}},{"type":"Feature","properties":{"Name":"Dare County Regional Airport","State":"North Carolina","State Abv":"NC","Size":"small_airport","Identifier":"KMQI","Elevation":13},"geometry":{"type":"Point","coordinates":[-75.69550323,35.91899872]}},{"type":"Feature","properties":{"Name":"Burlington Alamance Regional Airport","State":"North Carolina","State Abv":"NC","Size":"small_airport","Identifier":"KBUY","Elevation":617},"geometry":{"type":"Point","coordinates":[-79.47489929,36.04850006]}},{"type":"Feature","properties":{"Name":"Brunswick County Airport","State":"North Carolina","State Abv":"NC","Size":"small_airport","Identifier":"KSUT","Elevation":24},"geometry":{"type":"Point","coordinates":[-78.07499695,33.9292984]}},{"type":"Feature","properties":{"Name":"Western Carolina Regional Airport","State":"North Carolina","State Abv":"NC","Size":"small_airport","Identifier":"KRHP","Elevation":1697},"geometry":{"type":"Point","coordinates":[-83.862999,35.195202]}},{"type":"Feature","properties":{"Name":"Charlotte-Monroe Executive Airport","State":"North Carolina","State Abv":"NC","Size":"small_airport","Identifier":"KEQY","Elevation":679},"geometry":{"type":"Point","coordinates":[-80.62020111,35.01879883]}},{"type":"Feature","properties":{"Name":"Ocracoke Island Airport","State":"North Carolina","State Abv":"NC","Size":"small_airport","Identifier":"KW95","Elevation":5},"geometry":{"type":"Point","coordinates":[-75.96600342,35.1012001]}},{"type":"Feature","properties":{"Name":"Siler City Municipal Airport","State":"North Carolina","State Abv":"NC","Size":"small_airport","Identifier":"K5W8","Elevation":614},"geometry":{"type":"Point","coordinates":[-79.504204,35.7043]}},{"type":"Feature","properties":{"Name":"Harnett Regional Jetport Airport","State":"North Carolina","State Abv":"NC","Size":"small_airport","Identifier":"KHRJ","Elevation":202},"geometry":{"type":"Point","coordinates":[-78.733002,35.379398]}},{"type":"Feature","properties":{"Name":"Stanly County Airport","State":"North Carolina","State Abv":"NC","Size":"small_airport","Identifier":"KVUJ","Elevation":609},"geometry":{"type":"Point","coordinates":[-80.15080261,35.41669846]}},{"type":"Feature","properties":{"Name":"Asheboro Regional Airport","State":"North Carolina","State Abv":"NC","Size":"small_airport","Identifier":"KHBI","Elevation":671},"geometry":{"type":"Point","coordinates":[-79.8946991,35.65449905]}},{"type":"Feature","properties":{"Name":"Currituck County Regional Airport","State":"North Carolina","State Abv":"NC","Size":"small_airport","Identifier":"KONX","Elevation":18},"geometry":{"type":"Point","coordinates":[-76.016296,36.398899]}},{"type":"Feature","properties":{"Name":"Macon County Airport","State":"North Carolina","State Abv":"NC","Size":"small_airport","Identifier":"K1A5","Elevation":2020},"geometry":{"type":"Point","coordinates":[-83.41899872,35.22259903]}},{"type":"Feature","properties":{"Name":"Johnston County Airport","State":"North Carolina","State Abv":"NC","Size":"small_airport","Identifier":"KJNX","Elevation":164},"geometry":{"type":"Point","coordinates":[-78.39029694,35.54090118]}},{"type":"Feature","properties":{"Name":"Michael J. Smith Field","State":"North Carolina","State Abv":"NC","Size":"small_airport","Identifier":"KMRH","Elevation":11},"geometry":{"type":"Point","coordinates":[-76.66059875,34.73360062]}},{"type":"Feature","properties":{"Name":"Moore County Airport","State":"North Carolina","State Abv":"NC","Size":"small_airport","Identifier":"KSOP","Elevation":455},"geometry":{"type":"Point","coordinates":[-79.389381,35.237184]}},{"type":"Feature","properties":{"Name":"Davidson County Airport","State":"North Carolina","State Abv":"NC","Size":"small_airport","Identifier":"KEXX","Elevation":733},"geometry":{"type":"Point","coordinates":[-80.30380249,35.78110123]}},{"type":"Feature","properties":{"Name":"Foothills Regional Airport","State":"North Carolina","State Abv":"NC","Size":"small_airport","Identifier":"KMRN","Elevation":1270},"geometry":{"type":"Point","coordinates":[-81.611397,35.820202]}},{"type":"Feature","properties":{"Name":"Odell Williamson Municipal Airport","State":"North Carolina","State Abv":"NC","Size":"small_airport","Identifier":"K60J","Elevation":32},"geometry":{"type":"Point","coordinates":[-78.43669891,33.90850067]}},{"type":"Feature","properties":{"Name":"Raleigh Regional Airport at Person County","State":"North Carolina","State Abv":"NC","Size":"small_airport","Identifier":"KTDF","Elevation":609},"geometry":{"type":"Point","coordinates":[-78.9842,36.284901]}},{"type":"Feature","properties":{"Name":"Rutherford County Marchman Field","State":"North Carolina","State Abv":"NC","Size":"small_airport","Identifier":"KFQD","Elevation":1077},"geometry":{"type":"Point","coordinates":[-81.935097,35.4282]}},{"type":"Feature","properties":{"Name":"Sanford-Lee County Regional Airport","State":"North Carolina","State Abv":"NC","Size":"small_airport","Identifier":"KTTA","Elevation":246},"geometry":{"type":"Point","coordinates":[-79.10079956,35.58369827]}},{"type":"Feature","properties":{"Name":"Wilson Industrial Air Center Airport","State":"North Carolina","State Abv":"NC","Size":"small_airport","Identifier":"KW03","Elevation":161},"geometry":{"type":"Point","coordinates":[-77.96980286,35.770401]}},{"type":"Feature","properties":{"Name":"Gilliam-McConnell Airfield","State":"North Carolina","State Abv":"NC","Size":"small_airport","Identifier":"5NC3","Elevation":445},"geometry":{"type":"Point","coordinates":[-79.436897,35.341702]}},{"type":"Feature","properties":{"Name":"Sampson County Airport","State":"North Carolina","State Abv":"NC","Size":"small_airport","Identifier":"KCTZ","Elevation":148},"geometry":{"type":"Point","coordinates":[-78.36460114,34.9756012]}},{"type":"Feature","properties":{"Name":"Triangle North Executive Airport","State":"North Carolina","State Abv":"NC","Size":"small_airport","Identifier":"KLHZ","Elevation":369},"geometry":{"type":"Point","coordinates":[-78.330299,36.0233]}},{"type":"Feature","properties":{"Name":"Ashe County Airport","State":"North Carolina","State Abv":"NC","Size":"small_airport","Identifier":"KGEV","Elevation":3180},"geometry":{"type":"Point","coordinates":[-81.419702,36.4324]}},{"type":"Feature","properties":{"Name":"Lincolnton Lincoln County Regional Airport","State":"North Carolina","State Abv":"NC","Size":"small_airport","Identifier":"KIPJ","Elevation":877},"geometry":{"type":"Point","coordinates":[-81.161301,35.483299]}},{"type":"Feature","properties":{"Name":"Elkin Municipal Airport","State":"North Carolina","State Abv":"NC","Size":"small_airport","Identifier":"KZEF","Elevation":1068},"geometry":{"type":"Point","coordinates":[-80.78610229,36.27999878]}},{"type":"Feature","properties":{"Name":"Goldsboro-Wayne Municipal Airport","State":"North Carolina","State Abv":"NC","Size":"small_airport","Identifier":"KGWW","Elevation":134},"geometry":{"type":"Point","coordinates":[-77.96489716,35.46060181]}},{"type":"Feature","properties":{"Name":"Wilkes County Airport","State":"North Carolina","State Abv":"NC","Size":"small_airport","Identifier":"KUKF","Elevation":1301},"geometry":{"type":"Point","coordinates":[-81.09829712,36.22280121]}},{"type":"Feature","properties":{"Name":"Rockingham County NC Shiloh Airport","State":"North Carolina","State Abv":"NC","Size":"small_airport","Identifier":"KSIF","Elevation":694},"geometry":{"type":"Point","coordinates":[-79.85099792,36.43719864]}},{"type":"Feature","properties":{"Name":"Curtis L Brown Jr Field","State":"North Carolina","State Abv":"NC","Size":"small_airport","Identifier":"KEYF","Elevation":131},"geometry":{"type":"Point","coordinates":[-78.57929993,34.60179901]}},{"type":"Feature","properties":{"Name":"Billy Mitchell Airport","State":"North Carolina","State Abv":"NC","Size":"small_airport","Identifier":"KHSE","Elevation":17},"geometry":{"type":"Point","coordinates":[-75.61779785,35.23279953]}},{"type":"Feature","properties":{"Name":"Hendersonville Airport","State":"North Carolina","State Abv":"NC","Size":"small_airport","Identifier":"K0A7","Elevation":2084},"geometry":{"type":"Point","coordinates":[-82.432948,35.308258]}},{"type":"Feature","properties":{"Name":"Duplin County Airport","State":"North Carolina","State Abv":"NC","Size":"small_airport","Identifier":"KDPL","Elevation":136},"geometry":{"type":"Point","coordinates":[-77.98169708,35.00009918]}},{"type":"Feature","properties":{"Name":"Laurinburg Maxton Airport","State":"North Carolina","State Abv":"NC","Size":"small_airport","Identifier":"KMEB","Elevation":216},"geometry":{"type":"Point","coordinates":[-79.365799,34.791901]}},{"type":"Feature","properties":{"Name":"Lake Norman Airpark","State":"North Carolina","State Abv":"NC","Size":"small_airport","Identifier":"K14A","Elevation":839},"geometry":{"type":"Point","coordinates":[-80.8993988,35.61299896]}},{"type":"Feature","properties":{"Name":"Mount Airy Surry County Airport","State":"North Carolina","State Abv":"NC","Size":"small_airport","Identifier":"KMWK","Elevation":1249},"geometry":{"type":"Point","coordinates":[-80.5530014,36.45970154]}},{"type":"Feature","properties":{"Name":"Henderson Oxford Airport","State":"North Carolina","State Abv":"NC","Size":"small_airport","Identifier":"KHNZ","Elevation":526},"geometry":{"type":"Point","coordinates":[-78.52919769,36.36159897]}},{"type":"Feature","properties":{"Name":"Warren Field","State":"North Carolina","State Abv":"NC","Size":"small_airport","Identifier":"KOCW","Elevation":38},"geometry":{"type":"Point","coordinates":[-77.04979706,35.57049942]}},{"type":"Feature","properties":{"Name":"Columbus County Municipal Airport","State":"North Carolina","State Abv":"NC","Size":"small_airport","Identifier":"KCPC","Elevation":99},"geometry":{"type":"Point","coordinates":[-78.71499634,34.27289963]}},{"type":"Feature","properties":{"Name":"Air Harbor Airport","State":"North Carolina","State Abv":"NC","Size":"small_airport","Identifier":"W88","Elevation":822},"geometry":{"type":"Point","coordinates":[-79.80310059,36.17359924]}},{"type":"Feature","properties":{"Name":"Plymouth Municipal Airport","State":"North Carolina","State Abv":"NC","Size":"small_airport","Identifier":"KPMZ","Elevation":39},"geometry":{"type":"Point","coordinates":[-76.75930023,35.8083992]}},{"type":"Feature","properties":{"Name":"Richmond County Airport","State":"North Carolina","State Abv":"NC","Size":"small_airport","Identifier":"KRCZ","Elevation":358},"geometry":{"type":"Point","coordinates":[-79.759598,34.8913]}},{"type":"Feature","properties":{"Name":"Mid-Carolina Regional Airport","State":"North Carolina","State Abv":"NC","Size":"small_airport","Identifier":"KRUQ","Elevation":772},"geometry":{"type":"Point","coordinates":[-80.520302,35.645901]}},{"type":"Feature","properties":{"Name":"Henderson Field","State":"North Carolina","State Abv":"NC","Size":"small_airport","Identifier":"KACZ","Elevation":39},"geometry":{"type":"Point","coordinates":[-78.00360107,34.71789932]}},{"type":"Feature","properties":{"Name":"Pilots Ridge Airport","State":"North Carolina","State Abv":"NC","Size":"small_airport","Identifier":"03NC","Elevation":35},"geometry":{"type":"Point","coordinates":[-77.90419769,34.10430145]}},{"type":"Feature","properties":{"Name":"Lake Ridge Aero Park Airport","State":"North Carolina","State Abv":"NC","Size":"small_airport","Identifier":"8NC8","Elevation":309},"geometry":{"type":"Point","coordinates":[-78.78330231,36.06010056]}},{"type":"Feature","properties":{"Name":"Northeastern Regional Airport","State":"North Carolina","State Abv":"NC","Size":"small_airport","Identifier":"KEDE","Elevation":20},"geometry":{"type":"Point","coordinates":[-76.56710052,36.02769852]}},{"type":"Feature","properties":{"Name":"Gastonia Municipal Airport","State":"North Carolina","State Abv":"NC","Size":"small_airport","Identifier":"KAKH","Elevation":798},"geometry":{"type":"Point","coordinates":[-81.149902,35.202598]}},{"type":"Feature","properties":{"Name":"Mount Olive Municipal Airport","State":"North Carolina","State Abv":"NC","Size":"small_airport","Identifier":"KW40","Elevation":168},"geometry":{"type":"Point","coordinates":[-78.03780365,35.22219849]}},{"type":"Feature","properties":{"Name":"Shelby-Cleveland County Regional Airport","State":"North Carolina","State Abv":"NC","Size":"small_airport","Identifier":"KEHO","Elevation":847},"geometry":{"type":"Point","coordinates":[-81.60099792,35.25559998]}},{"type":"Feature","properties":{"Name":"Jackson County Airport","State":"North Carolina","State Abv":"NC","Size":"small_airport","Identifier":"K24A","Elevation":2857},"geometry":{"type":"Point","coordinates":[-83.2098999,35.31740189]}},{"type":"Feature","properties":{"Name":"Martin County Airport","State":"North Carolina","State Abv":"NC","Size":"small_airport","Identifier":"KMCZ","Elevation":76},"geometry":{"type":"Point","coordinates":[-77.17819977,35.86220169]}},{"type":"Feature","properties":{"Name":"Twin Lakes Airport","State":"North Carolina","State Abv":"NC","Size":"small_airport","Identifier":"8A7","Elevation":818},"geometry":{"type":"Point","coordinates":[-80.456802,35.914902]}},{"type":"Feature","properties":{"Name":"Cox Airport","State":"North Carolina","State Abv":"NC","Size":"small_airport","Identifier":"NC81","Elevation":455},"geometry":{"type":"Point","coordinates":[-78.85970306,35.75180054]}},{"type":"Feature","properties":{"Name":"Hyde County Airport","State":"North Carolina","State Abv":"NC","Size":"small_airport","Identifier":"K7W6","Elevation":8},"geometry":{"type":"Point","coordinates":[-75.9552002,35.56240082]}},{"type":"Feature","properties":{"Name":"Grays Creek Airport","State":"North Carolina","State Abv":"NC","Size":"small_airport","Identifier":"K2GC","Elevation":160},"geometry":{"type":"Point","coordinates":[-78.843498,34.8937]}},{"type":"Feature","properties":{"Name":"Fuquay/Angier Field","State":"North Carolina","State Abv":"NC","Size":"small_airport","Identifier":"78NC","Elevation":349},"geometry":{"type":"Point","coordinates":[-78.74749756,35.54430008]}},{"type":"Feature","properties":{"Name":"Wilson's Airport","State":"North Carolina","State Abv":"NC","Size":"small_airport","Identifier":"E40","Elevation":985},"geometry":{"type":"Point","coordinates":[-81.35790253,35.65209961]}},{"type":"Feature","properties":{"Name":"Raleigh East Airport","State":"North Carolina","State Abv":"NC","Size":"small_airport","Identifier":"9NC0","Elevation":313},"geometry":{"type":"Point","coordinates":[-78.43699646,35.79769897]}},{"type":"Feature","properties":{"Name":"Miller Air Park","State":"North Carolina","State Abv":"NC","Size":"small_airport","Identifier":"NC30","Elevation":864},"geometry":{"type":"Point","coordinates":[-80.74150085,35.61399841]}},{"type":"Feature","properties":{"Name":"Halifax-Northampton Regional Airport","State":"North Carolina","State Abv":"NC","Size":"small_airport","Identifier":"KIXA","Elevation":145},"geometry":{"type":"Point","coordinates":[-77.63523102,36.32979965]}},{"type":"Feature","properties":{"Name":"Avery County Morrison Field","State":"North Carolina","State Abv":"NC","Size":"small_airport","Identifier":"K7A8","Elevation":2750},"geometry":{"type":"Point","coordinates":[-81.99569702,35.94459915]}},{"type":"Feature","properties":{"Name":"Montgomery County Airport","State":"North Carolina","State Abv":"NC","Size":"small_airport","Identifier":"K43A","Elevation":628},"geometry":{"type":"Point","coordinates":[-79.790546,35.384097]}},{"type":"Feature","properties":{"Name":"Statesville Regional Airport","State":"North Carolina","State Abv":"NC","Size":"small_airport","Identifier":"KSVH","Elevation":968},"geometry":{"type":"Point","coordinates":[-80.9539032,35.76530075]}},{"type":"Feature","properties":{"Name":"Anson County Airport - Jeff Cloud Field","State":"North Carolina","State Abv":"NC","Size":"small_airport","Identifier":"KAFP","Elevation":300},"geometry":{"type":"Point","coordinates":[-80.077103,35.020599]}},{"type":"Feature","properties":{"Name":"Jaars Townsend Airport","State":"North Carolina","State Abv":"NC","Size":"small_airport","Identifier":"KN52","Elevation":602},"geometry":{"type":"Point","coordinates":[-80.748001,34.8638]}},{"type":"Feature","properties":{"Name":"Tri County Airport","State":"North Carolina","State Abv":"NC","Size":"small_airport","Identifier":"KASJ","Elevation":68},"geometry":{"type":"Point","coordinates":[-77.17089844,36.29750061]}},{"type":"Feature","properties":{"Name":"Spencer Field","State":"North Carolina","State Abv":"NC","Size":"small_airport","Identifier":"7NC9","Elevation":460},"geometry":{"type":"Point","coordinates":[-79.91110229,35.72740173]}},{"type":"Feature","properties":{"Name":"Boone Inc Airport","State":"North Carolina","State Abv":"NC","Size":"small_airport","Identifier":"NC14","Elevation":3120},"geometry":{"type":"Point","coordinates":[-81.63950348,36.19680023]}},{"type":"Feature","properties":{"Name":"Crooked Creek Airport","State":"North Carolina","State Abv":"NC","Size":"small_airport","Identifier":"7NC5","Elevation":250},"geometry":{"type":"Point","coordinates":[-78.24669647,35.93379974]}},{"type":"Feature","properties":{"Name":"Stag Air Park","State":"North Carolina","State Abv":"NC","Size":"small_airport","Identifier":"7NC1","Elevation":23},"geometry":{"type":"Point","coordinates":[-77.85030365,34.5279007]}},{"type":"Feature","properties":{"Name":"Mountain Air Airport","State":"North Carolina","State Abv":"NC","Size":"small_airport","Identifier":"2NC0","Elevation":4432},"geometry":{"type":"Point","coordinates":[-82.34179688,35.86869812]}},{"type":"Feature","properties":{"Name":"Dean Field","State":"North Carolina","State Abv":"NC","Size":"small_airport","Identifier":"8NC1","Elevation":480},"geometry":{"type":"Point","coordinates":[-79.240898,35.376301]}},{"type":"Feature","properties":{"Name":"Summey Airpark","State":"North Carolina","State Abv":"NC","Size":"small_airport","Identifier":"8NC2","Elevation":1000},"geometry":{"type":"Point","coordinates":[-81.78510284,35.28929901]}},{"type":"Feature","properties":{"Name":"Long Island Airpark","State":"North Carolina","State Abv":"NC","Size":"small_airport","Identifier":"NC26","Elevation":864},"geometry":{"type":"Point","coordinates":[-80.971705,35.661718]}},{"type":"Feature","properties":{"Name":"Twin Oak Airport","State":"North Carolina","State Abv":"NC","Size":"small_airport","Identifier":"NC69","Elevation":125},"geometry":{"type":"Point","coordinates":[-78.47419739,34.87099838]}},{"type":"Feature","properties":{"Name":"Gold Hill Airport","State":"North Carolina","State Abv":"NC","Size":"small_airport","Identifier":"NC25","Elevation":720},"geometry":{"type":"Point","coordinates":[-80.311203,35.50899887]}},{"type":"Feature","properties":{"Name":"Southeast Greensboro Airport","State":"North Carolina","State Abv":"NC","Size":"small_airport","Identifier":"K3A4","Elevation":737},"geometry":{"type":"Point","coordinates":[-79.6855011,35.94200134]}},{"type":"Feature","properties":{"Name":"Schneider Haven Airstrip","State":"North Carolina","State Abv":"NC","Size":"small_airport","Identifier":"NC75","Elevation":865},"geometry":{"type":"Point","coordinates":[-80.72029877,35.89830017]}},{"type":"Feature","properties":{"Name":"Western North Carolina Air Museum Airport","State":"North Carolina","State Abv":"NC","Size":"small_airport","Identifier":"8NC9","Elevation":2083},"geometry":{"type":"Point","coordinates":[-82.434263,35.307855]}},{"type":"Feature","properties":{"Name":"Holly Ridge/Topsail Island Airport","State":"North Carolina","State Abv":"NC","Size":"small_airport","Identifier":"N21","Elevation":40},"geometry":{"type":"Point","coordinates":[-77.531094,34.491001]}},{"type":"Feature","properties":{"Name":"Bradford Field Airport","State":"North Carolina","State Abv":"NC","Size":"small_airport","Identifier":"NC05","Elevation":649},"geometry":{"type":"Point","coordinates":[-80.79419708,35.40869904]}},{"type":"Feature","properties":{"Name":"Goose Creek Airport","State":"North Carolina","State Abv":"NC","Size":"small_airport","Identifier":"28A","Elevation":565},"geometry":{"type":"Point","coordinates":[-80.58730316,35.12099838]}},{"type":"Feature","properties":{"Name":"Sky Manor Airport","State":"North Carolina","State Abv":"NC","Size":"small_airport","Identifier":"N22","Elevation":60},"geometry":{"type":"Point","coordinates":[-77.59220123,34.71680069]}},{"type":"Feature","properties":{"Name":"Goodnight's Airport","State":"North Carolina","State Abv":"NC","Size":"small_airport","Identifier":"2NC8","Elevation":740},"geometry":{"type":"Point","coordinates":[-80.63980103,35.52539825]}},{"type":"Feature","properties":{"Name":"Barringer Field","State":"North Carolina","State Abv":"NC","Size":"small_airport","Identifier":"NC64","Elevation":800},"geometry":{"type":"Point","coordinates":[-80.69670105,35.52780151]}},{"type":"Feature","properties":{"Name":"Causey Airport","State":"North Carolina","State Abv":"NC","Size":"small_airport","Identifier":"K2A5","Elevation":723},"geometry":{"type":"Point","coordinates":[-79.61759949,35.91180038]}},{"type":"Feature","properties":{"Name":"Ball Airport","State":"North Carolina","State Abv":"NC","Size":"small_airport","Identifier":"79NC","Elevation":366},"geometry":{"type":"Point","coordinates":[-78.2818985,36.13430023]}},{"type":"Feature","properties":{"Name":"Laneys Airport","State":"North Carolina","State Abv":"NC","Size":"small_airport","Identifier":"N92","Elevation":1025},"geometry":{"type":"Point","coordinates":[-81.11730194,35.57429886]}},{"type":"Feature","properties":{"Name":"Shiflet Field","State":"North Carolina","State Abv":"NC","Size":"small_airport","Identifier":"9A9","Elevation":1212},"geometry":{"type":"Point","coordinates":[-82.00980377,35.72069931]}},{"type":"Feature","properties":{"Name":"Johnston Airport","State":"North Carolina","State Abv":"NC","Size":"small_airport","Identifier":"35NC","Elevation":715},"geometry":{"type":"Point","coordinates":[-80.75140381,35.53829956]}},{"type":"Feature","properties":{"Name":"Willow Creek Airport","State":"North Carolina","State Abv":"NC","Size":"small_airport","Identifier":"9NC7","Elevation":572},"geometry":{"type":"Point","coordinates":[-80.44000244,35.36970139]}},{"type":"Feature","properties":{"Name":"P K Airpark","State":"North Carolina","State Abv":"NC","Size":"small_airport","Identifier":"K5W4","Elevation":304},"geometry":{"type":"Point","coordinates":[-79.191002,35.019901]}},{"type":"Feature","properties":{"Name":"Triple W Airport","State":"North Carolina","State Abv":"NC","Size":"small_airport","Identifier":"K5W5","Elevation":244},"geometry":{"type":"Point","coordinates":[-78.700302,35.6203]}},{"type":"Feature","properties":{"Name":"Yorks Field","State":"North Carolina","State Abv":"NC","Size":"small_airport","Identifier":"NC13","Elevation":571},"geometry":{"type":"Point","coordinates":[-79.67060089,35.75149918]}},{"type":"Feature","properties":{"Name":"Tarboro Edgecombe Airport","State":"North Carolina","State Abv":"NC","Size":"small_airport","Identifier":"KETC","Elevation":53},"geometry":{"type":"Point","coordinates":[-77.54660034,35.93709946]}},{"type":"Feature","properties":{"Name":"Taylorsville Airport","State":"North Carolina","State Abv":"NC","Size":"small_airport","Identifier":"4NC3","Elevation":1090},"geometry":{"type":"Point","coordinates":[-81.196702,35.930801]}},{"type":"Feature","properties":{"Name":"Carolina Bay Airport","State":"North Carolina","State Abv":"NC","Size":"small_airport","Identifier":"US-4621","Elevation":50},"geometry":{"type":"Point","coordinates":[-78.719722,34.097222]}},{"type":"Feature","properties":{"Name":"Nijmegen UAS Launch and Recovery Site","State":"North Carolina","State Abv":"NC","Size":"small_airport","Identifier":"US-5641","Elevation":411},"geometry":{"type":"Point","coordinates":[-79.33013,35.09893]}},{"type":"Feature","properties":{"Name":"Happy Bottom Airport","State":"North Carolina","State Abv":"NC","Size":"small_airport","Identifier":"30NC","Elevation":705},"geometry":{"type":"Point","coordinates":[-80.45690155,36.04859924]}},{"type":"Feature","properties":{"Name":"Marchmont Plantation Airpark","State":"North Carolina","State Abv":"NC","Size":"small_airport","Identifier":"6NC8","Elevation":730},"geometry":{"type":"Point","coordinates":[-80.3844986,35.9382019]}},{"type":"Feature","properties":{"Name":"Dragonfly Field","State":"North Carolina","State Abv":"NC","Size":"small_airport","Identifier":"15NC","Elevation":49},"geometry":{"type":"Point","coordinates":[-76.97389984,36.23970032]}},{"type":"Feature","properties":{"Name":"Zombie Air Force Airport","State":"North Carolina","State Abv":"NC","Size":"small_airport","Identifier":"17NR","Elevation":86},"geometry":{"type":"Point","coordinates":[-78.577008,34.78325]}},{"type":"Feature","properties":{"Name":"Fish Airpark","State":"North Carolina","State Abv":"NC","Size":"small_airport","Identifier":"7NC8","Elevation":280},"geometry":{"type":"Point","coordinates":[-78.6964035,35.53490067]}},{"type":"Feature","properties":{"Name":"C A G Farms Airport","State":"North Carolina","State Abv":"NC","Size":"small_airport","Identifier":"87NC","Elevation":310},"geometry":{"type":"Point","coordinates":[-78.652003,35.468762]}},{"type":"Feature","properties":{"Name":"Barclaysville Field","State":"North Carolina","State Abv":"NC","Size":"small_airport","Identifier":"NC44","Elevation":300},"geometry":{"type":"Point","coordinates":[-78.68389893,35.46689987]}},{"type":"Feature","properties":{"Name":"Noles Field","State":"North Carolina","State Abv":"NC","Size":"small_airport","Identifier":"US-1004","Elevation":279},"geometry":{"type":"Point","coordinates":[-78.592778,35.545278]}},{"type":"Feature","properties":{"Name":"Deck Airpark","State":"North Carolina","State Abv":"NC","Size":"small_airport","Identifier":"NC11","Elevation":338},"geometry":{"type":"Point","coordinates":[-78.92469788,35.74150085]}},{"type":"Feature","properties":{"Name":"Delk's Airport","State":"North Carolina","State Abv":"NC","Size":"small_airport","Identifier":"1NC0","Elevation":460},"geometry":{"type":"Point","coordinates":[-79.934889,35.722406]}},{"type":"Feature","properties":{"Name":"Smith Air Strip","State":"North Carolina","State Abv":"NC","Size":"small_airport","Identifier":"25NC","Elevation":560},"geometry":{"type":"Point","coordinates":[-79.711768,35.632717]}},{"type":"Feature","properties":{"Name":"Yonder Airport","State":"North Carolina","State Abv":"NC","Size":"small_airport","Identifier":"NC65","Elevation":35},"geometry":{"type":"Point","coordinates":[-78.26809692,34.55960083]}},{"type":"Feature","properties":{"Name":"Atlantic Field Marine Corps Outlying Field","State":"North Carolina","State Abv":"NC","Size":"small_airport","Identifier":"12NC","Elevation":20},"geometry":{"type":"Point","coordinates":[-76.349029,34.892099]}},{"type":"Feature","properties":{"Name":"Jackson Private Airport","State":"North Carolina","State Abv":"NC","Size":"small_airport","Identifier":"NC54","Elevation":10},"geometry":{"type":"Point","coordinates":[-76.358328,34.878444]}},{"type":"Feature","properties":{"Name":"Lee Creek Airport","State":"North Carolina","State Abv":"NC","Size":"small_airport","Identifier":"NC12","Elevation":3},"geometry":{"type":"Point","coordinates":[-76.78469849,35.38959885]}},{"type":"Feature","properties":{"Name":"Elk River Airport","State":"North Carolina","State Abv":"NC","Size":"small_airport","Identifier":"NC06","Elevation":3468},"geometry":{"type":"Point","coordinates":[-81.894809,36.160474]}},{"type":"Feature","properties":{"Name":"Dead Cow Field","State":"North Carolina","State Abv":"NC","Size":"small_airport","Identifier":"US-0401","Elevation":11},"geometry":{"type":"Point","coordinates":[-76.644701,34.758387]}},{"type":"Feature","properties":{"Name":"Als Airport","State":"North Carolina","State Abv":"NC","Size":"small_airport","Identifier":"NR40","Elevation":65},"geometry":{"type":"Point","coordinates":[-77.378889,35.820833]}},{"type":"Feature","properties":{"Name":"Bladenboro Airport","State":"North Carolina","State Abv":"NC","Size":"small_airport","Identifier":"3W6","Elevation":115},"geometry":{"type":"Point","coordinates":[-78.78309631,34.55020142]}},{"type":"Feature","properties":{"Name":"Boonville Airport","State":"North Carolina","State Abv":"NC","Size":"small_airport","Identifier":"26NC","Elevation":1003},"geometry":{"type":"Point","coordinates":[-80.71559906,36.22290039]}},{"type":"Feature","properties":{"Name":"Welborn Farm Airport","State":"North Carolina","State Abv":"NC","Size":"small_airport","Identifier":"3NC1","Elevation":1030},"geometry":{"type":"Point","coordinates":[-80.65840149,36.20539856]}},{"type":"Feature","properties":{"Name":"Brevard Airport","State":"North Carolina","State Abv":"NC","Size":"small_airport","Identifier":"NC16","Elevation":2125},"geometry":{"type":"Point","coordinates":[-82.72679901,35.22259903]}},{"type":"Feature","properties":{"Name":"Transylvania Community Airport","State":"North Carolina","State Abv":"NC","Size":"small_airport","Identifier":"3NR3","Elevation":2110},"geometry":{"type":"Point","coordinates":[-82.644167,35.270277]}},{"type":"Feature","properties":{"Name":"William Irving Lewis Airport","State":"North Carolina","State Abv":"NC","Size":"small_airport","Identifier":"09NC","Elevation":310},"geometry":{"type":"Point","coordinates":[-79.02999878,35.32929993]}},{"type":"Feature","properties":{"Name":"Sossamon Field","State":"North Carolina","State Abv":"NC","Size":"small_airport","Identifier":"57NC","Elevation":1940},"geometry":{"type":"Point","coordinates":[-83.45819855,35.42649841]}},{"type":"Feature","properties":{"Name":"Riley Field","State":"North Carolina","State Abv":"NC","Size":"small_airport","Identifier":"1NC5","Elevation":360},"geometry":{"type":"Point","coordinates":[-78.34860229,35.93320084]}},{"type":"Feature","properties":{"Name":"Rooster Field","State":"North Carolina","State Abv":"NC","Size":"small_airport","Identifier":"84NC","Elevation":340},"geometry":{"type":"Point","coordinates":[-79.248548,35.272724]}},{"type":"Feature","properties":{"Name":"Triple M Airport","State":"North Carolina","State Abv":"NC","Size":"small_airport","Identifier":"4NC5","Elevation":30},"geometry":{"type":"Point","coordinates":[-77.05049896,34.73040009]}},{"type":"Feature","properties":{"Name":"Star Hill Golf Club Airport","State":"North Carolina","State Abv":"NC","Size":"small_airport","Identifier":"60NC","Elevation":40},"geometry":{"type":"Point","coordinates":[-77.05110168,34.7052002]}},{"type":"Feature","properties":{"Name":"Tobacco Road Airport","State":"North Carolina","State Abv":"NC","Size":"small_airport","Identifier":"NR88","Elevation":478},"geometry":{"type":"Point","coordinates":[-79.387797,35.280564]}},{"type":"Feature","properties":{"Name":"Wolf's Den Airport","State":"North Carolina","State Abv":"NC","Size":"small_airport","Identifier":"NC17","Elevation":10},"geometry":{"type":"Point","coordinates":[-76.302308,34.980051]}},{"type":"Feature","properties":{"Name":"Womble Field","State":"North Carolina","State Abv":"NC","Size":"small_airport","Identifier":"3NC9","Elevation":475},"geometry":{"type":"Point","coordinates":[-79.08719635,35.87509918]}},{"type":"Feature","properties":{"Name":"The Duchy Airport","State":"North Carolina","State Abv":"NC","Size":"small_airport","Identifier":"5NC5","Elevation":650},"geometry":{"type":"Point","coordinates":[-79.27310181,35.98149872]}},{"type":"Feature","properties":{"Name":"Miles Airport","State":"North Carolina","State Abv":"NC","Size":"small_airport","Identifier":"NC34","Elevation":580},"geometry":{"type":"Point","coordinates":[-79.12470245,35.97040176]}},{"type":"Feature","properties":{"Name":"Northbrook International Ultraport Ultralightport","State":"North Carolina","State Abv":"NC","Size":"small_airport","Identifier":"1NC9","Elevation":1030},"geometry":{"type":"Point","coordinates":[-81.42639923,35.4496994]}},{"type":"Feature","properties":{"Name":"Bradley Field","State":"North Carolina","State Abv":"NC","Size":"small_airport","Identifier":"NC29","Elevation":795},"geometry":{"type":"Point","coordinates":[-80.59760284,35.62009811]}},{"type":"Feature","properties":{"Name":"Elkins Field","State":"North Carolina","State Abv":"NC","Size":"small_airport","Identifier":"1.00E+06","Elevation":93},"geometry":{"type":"Point","coordinates":[-78.61830139,34.45780182]}},{"type":"Feature","properties":{"Name":"Rivercliff Airport","State":"North Carolina","State Abv":"NC","Size":"small_airport","Identifier":"NC32","Elevation":690},"geometry":{"type":"Point","coordinates":[-80.436402,36.025799]}},{"type":"Feature","properties":{"Name":"Flying S Ranch Airport","State":"North Carolina","State Abv":"NC","Size":"small_airport","Identifier":"0NC8","Elevation":830},"geometry":{"type":"Point","coordinates":[-80.735298,35.755699]}},{"type":"Feature","properties":{"Name":"Buffalo Creek Airport","State":"North Carolina","State Abv":"NC","Size":"small_airport","Identifier":"4NC8","Elevation":600},"geometry":{"type":"Point","coordinates":[-80.62059784,35.42240143]}},{"type":"Feature","properties":{"Name":"Propst Airport","State":"North Carolina","State Abv":"NC","Size":"small_airport","Identifier":"NC19","Elevation":621},"geometry":{"type":"Point","coordinates":[-80.57559967,35.39179993]}},{"type":"Feature","properties":{"Name":"Spencer Airport","State":"North Carolina","State Abv":"NC","Size":"small_airport","Identifier":"NC35","Elevation":755},"geometry":{"type":"Point","coordinates":[-80.62200165,35.4029007]}},{"type":"Feature","properties":{"Name":"Chalfant Airport","State":"North Carolina","State Abv":"NC","Size":"small_airport","Identifier":"NC77","Elevation":587},"geometry":{"type":"Point","coordinates":[-80.57559967,35.45569992]}},{"type":"Feature","properties":{"Name":"Pine Island Airport","State":"North Carolina","State Abv":"NC","Size":"small_airport","Identifier":"7NC2","Elevation":16},"geometry":{"type":"Point","coordinates":[-75.78849792,36.25350189]}},{"type":"Feature","properties":{"Name":"Little Mountain Airport","State":"North Carolina","State Abv":"NC","Size":"small_airport","Identifier":"6NC1","Elevation":1030},"geometry":{"type":"Point","coordinates":[-81.080421,35.591767]}},{"type":"Feature","properties":{"Name":"Hood Field","State":"North Carolina","State Abv":"NC","Size":"small_airport","Identifier":"66NC","Elevation":59},"geometry":{"type":"Point","coordinates":[-77.4835968,35.17440033]}},{"type":"Feature","properties":{"Name":"Dublin Field","State":"North Carolina","State Abv":"NC","Size":"small_airport","Identifier":"NC82","Elevation":126},"geometry":{"type":"Point","coordinates":[-78.70249939,34.66960144]}},{"type":"Feature","properties":{"Name":"Charles Field","State":"North Carolina","State Abv":"NC","Size":"small_airport","Identifier":"NC22","Elevation":185},"geometry":{"type":"Point","coordinates":[-78.55519867,35.22750092]}},{"type":"Feature","properties":{"Name":"Lee's Airport","State":"North Carolina","State Abv":"NC","Size":"small_airport","Identifier":"16NC","Elevation":31},"geometry":{"type":"Point","coordinates":[-76.66529846,36.19609833]}},{"type":"Feature","properties":{"Name":"Larry F Warren Field","State":"North Carolina","State Abv":"NC","Size":"small_airport","Identifier":"US-0282","Elevation":650},"geometry":{"type":"Point","coordinates":[-79.170802,36.090583]}},{"type":"Feature","properties":{"Name":"Fletcher's Airport","State":"North Carolina","State Abv":"NC","Size":"small_airport","Identifier":"1NC3","Elevation":7},"geometry":{"type":"Point","coordinates":[-76.14910126,36.18069839]}},{"type":"Feature","properties":{"Name":"Meadstown Airstrip","State":"North Carolina","State Abv":"NC","Size":"small_airport","Identifier":"NC28","Elevation":7},"geometry":{"type":"Point","coordinates":[-76.2358017,36.20019913]}},{"type":"Feature","properties":{"Name":"Crabbe Airport","State":"North Carolina","State Abv":"NC","Size":"small_airport","Identifier":"3NR4","Elevation":15},"geometry":{"type":"Point","coordinates":[-76.336688,36.281394]}},{"type":"Feature","properties":{"Name":"Mitchell Field","State":"North Carolina","State Abv":"NC","Size":"small_airport","Identifier":"17NC","Elevation":23},"geometry":{"type":"Point","coordinates":[-78.32859802,34.46630096]}},{"type":"Feature","properties":{"Name":"Derby Aerodrome","State":"North Carolina","State Abv":"NC","Size":"small_airport","Identifier":"N26","Elevation":517},"geometry":{"type":"Point","coordinates":[-79.6313,35.1332]}},{"type":"Feature","properties":{"Name":"K & D Airport","State":"North Carolina","State Abv":"NC","Size":"small_airport","Identifier":"71NC","Elevation":800},"geometry":{"type":"Point","coordinates":[-79.450216,36.263961]}},{"type":"Feature","properties":{"Name":"H & J Strip Airport","State":"North Carolina","State Abv":"NC","Size":"small_airport","Identifier":"US-3269","Elevation":""},"geometry":{"type":"Point","coordinates":[-79.485745,36.258116]}},{"type":"Feature","properties":{"Name":"Dunroamin Farms Airport","State":"North Carolina","State Abv":"NC","Size":"small_airport","Identifier":"76NC","Elevation":100},"geometry":{"type":"Point","coordinates":[-77.62470245,36.15990067]}},{"type":"Feature","properties":{"Name":"Enfield-Shearin Airport","State":"North Carolina","State Abv":"NC","Size":"small_airport","Identifier":"NC45","Elevation":125},"geometry":{"type":"Point","coordinates":[-77.63749695,36.21720123]}},{"type":"Feature","properties":{"Name":"Strickland Field","State":"North Carolina","State Abv":"NC","Size":"small_airport","Identifier":"89NC","Elevation":98},"geometry":{"type":"Point","coordinates":[-79.02359772,34.26639938]}},{"type":"Feature","properties":{"Name":"Whitfield'S East Airport","State":"North Carolina","State Abv":"NC","Size":"small_airport","Identifier":"23NR","Elevation":1},"geometry":{"type":"Point","coordinates":[-76.234722,35.560556]}},{"type":"Feature","properties":{"Name":"Mckee Airport","State":"North Carolina","State Abv":"NC","Size":"small_airport","Identifier":"NC70","Elevation":110},"geometry":{"type":"Point","coordinates":[-79.10250092,34.50490189]}},{"type":"Feature","properties":{"Name":"Flanagan Field","State":"North Carolina","State Abv":"NC","Size":"small_airport","Identifier":"N08","Elevation":75},"geometry":{"type":"Point","coordinates":[-77.56060028,35.55670166]}},{"type":"Feature","properties":{"Name":"Windemere Airport","State":"North Carolina","State Abv":"NC","Size":"small_airport","Identifier":"47NC","Elevation":98},"geometry":{"type":"Point","coordinates":[-78.82279968,35.13809967]}},{"type":"Feature","properties":{"Name":"Eastover Air Ranch Airport","State":"North Carolina","State Abv":"NC","Size":"small_airport","Identifier":"6NC3","Elevation":160},"geometry":{"type":"Point","coordinates":[-78.77220154,35.08639908]}},{"type":"Feature","properties":{"Name":"Cane Creek Airport","State":"North Carolina","State Abv":"NC","Size":"small_airport","Identifier":"4NC6","Elevation":2100},"geometry":{"type":"Point","coordinates":[-82.482223,35.441363]}},{"type":"Feature","properties":{"Name":"Six Oaks Airport","State":"North Carolina","State Abv":"NC","Size":"small_airport","Identifier":"NC67","Elevation":2015},"geometry":{"type":"Point","coordinates":[-82.4525,35.467778]}},{"type":"Feature","properties":{"Name":"Clute's Hilltop Airport","State":"North Carolina","State Abv":"NC","Size":"small_airport","Identifier":"69NC","Elevation":1078},"geometry":{"type":"Point","coordinates":[-81.846012,35.433401]}},{"type":"Feature","properties":{"Name":"Peacock STOLport","State":"North Carolina","State Abv":"NC","Size":"small_airport","Identifier":"4NC7","Elevation":390},"geometry":{"type":"Point","coordinates":[-78.53749847,35.69630051]}},{"type":"Feature","properties":{"Name":"Bagwell Airport","State":"North Carolina","State Abv":"NC","Size":"small_airport","Identifier":"NC99","Elevation":300},"geometry":{"type":"Point","coordinates":[-78.60720062,35.67430115]}},{"type":"Feature","properties":{"Name":"Jiles Field","State":"North Carolina","State Abv":"NC","Size":"small_airport","Identifier":"9NC4","Elevation":75},"geometry":{"type":"Point","coordinates":[-76.66419983,36.50939941]}},{"type":"Feature","properties":{"Name":"Mclean Brothers Airport","State":"North Carolina","State Abv":"NC","Size":"small_airport","Identifier":"59NC","Elevation":696},"geometry":{"type":"Point","coordinates":[-79.55529785,36.09740067]}},{"type":"Feature","properties":{"Name":"Lonesome Field","State":"North Carolina","State Abv":"NC","Size":"small_airport","Identifier":"1NC8","Elevation":665},"geometry":{"type":"Point","coordinates":[-80.258102,35.5158]}},{"type":"Feature","properties":{"Name":"Lz Carroll STOLport","State":"North Carolina","State Abv":"NC","Size":"small_airport","Identifier":"4NC9","Elevation":675},"geometry":{"type":"Point","coordinates":[-80.34259796,35.44850159]}},{"type":"Feature","properties":{"Name":"Scottbrook Farm Airport","State":"North Carolina","State Abv":"NC","Size":"small_airport","Identifier":"2NC4","Elevation":160},"geometry":{"type":"Point","coordinates":[-78.15470123,35.33789825]}},{"type":"Feature","properties":{"Name":"Cox-Grantham Airfield","State":"North Carolina","State Abv":"NC","Size":"small_airport","Identifier":"6NC0","Elevation":157},"geometry":{"type":"Point","coordinates":[-78.18000031,35.28910065]}},{"type":"Feature","properties":{"Name":"May Airport","State":"North Carolina","State Abv":"NC","Size":"small_airport","Identifier":"80NC","Elevation":777},"geometry":{"type":"Point","coordinates":[-79.68930054,35.99900055]}},{"type":"Feature","properties":{"Name":"Meylor Field","State":"North Carolina","State Abv":"NC","Size":"small_airport","Identifier":"9NC9","Elevation":910},"geometry":{"type":"Point","coordinates":[-79.894182,36.209085]}},{"type":"Feature","properties":{"Name":"Boyd Field","State":"North Carolina","State Abv":"NC","Size":"small_airport","Identifier":"NC49","Elevation":50},"geometry":{"type":"Point","coordinates":[-77.19670105,35.52780151]}},{"type":"Feature","properties":{"Name":"Hamptonville Airport","State":"North Carolina","State Abv":"NC","Size":"small_airport","Identifier":"75NR","Elevation":1028},"geometry":{"type":"Point","coordinates":[-80.788975,36.092013]}},{"type":"Feature","properties":{"Name":"Boomerang Airport","State":"North Carolina","State Abv":"NC","Size":"small_airport","Identifier":"NC02","Elevation":850},"geometry":{"type":"Point","coordinates":[-81.86650085,35.21260071]}},{"type":"Feature","properties":{"Name":"Mc Cachren Field","State":"North Carolina","State Abv":"NC","Size":"small_airport","Identifier":"3NC6","Elevation":565},"geometry":{"type":"Point","coordinates":[-80.64420319,35.3117981]}},{"type":"Feature","properties":{"Name":"Hickory Hill Airport","State":"North Carolina","State Abv":"NC","Size":"small_airport","Identifier":"62NC","Elevation":30},"geometry":{"type":"Point","coordinates":[-76.94470215,34.9367981]}},{"type":"Feature","properties":{"Name":"Dogwood Farm Airport","State":"North Carolina","State Abv":"NC","Size":"small_airport","Identifier":"NC87","Elevation":26},"geometry":{"type":"Point","coordinates":[-76.94270325,34.88180161]}},{"type":"Feature","properties":{"Name":"Tusquittee Landing Airport","State":"North Carolina","State Abv":"NC","Size":"small_airport","Identifier":"NC08","Elevation":2000},"geometry":{"type":"Point","coordinates":[-83.73629761,35.08539963]}},{"type":"Feature","properties":{"Name":"Boyd Field","State":"North Carolina","State Abv":"NC","Size":"small_airport","Identifier":"1NR7","Elevation":336},"geometry":{"type":"Point","coordinates":[-78.46862,36.274059]}},{"type":"Feature","properties":{"Name":"Craig Craft Airport","State":"North Carolina","State Abv":"NC","Size":"small_airport","Identifier":"86NC","Elevation":14},"geometry":{"type":"Point","coordinates":[-76.49330139,36.2635994]}},{"type":"Feature","properties":{"Name":"Harvey Point Defense Testing Activity Airport","State":"North Carolina","State Abv":"NC","Size":"small_airport","Identifier":"NC01","Elevation":10},"geometry":{"type":"Point","coordinates":[-76.32710266,36.09619904]}},{"type":"Feature","properties":{"Name":"Stieger Field","State":"North Carolina","State Abv":"NC","Size":"small_airport","Identifier":"US-1001","Elevation":1070},"geometry":{"type":"Point","coordinates":[-81.427555,35.574944]}},{"type":"Feature","properties":{"Name":"Fly Sky Airport","State":"North Carolina","State Abv":"NC","Size":"small_airport","Identifier":"US-4189","Elevation":1025},"geometry":{"type":"Point","coordinates":[-81.34375,35.629167]}},{"type":"Feature","properties":{"Name":"Darr Field","State":"North Carolina","State Abv":"NC","Size":"small_airport","Identifier":"NC03","Elevation":874},"geometry":{"type":"Point","coordinates":[-79.98729706,35.90850067]}},{"type":"Feature","properties":{"Name":"Smoke and Wings Airport","State":"North Carolina","State Abv":"NC","Size":"small_airport","Identifier":"9NR0","Elevation":741},"geometry":{"type":"Point","coordinates":[-79.177222,36.218055]}},{"type":"Feature","properties":{"Name":"Ellis Airport","State":"North Carolina","State Abv":"NC","Size":"small_airport","Identifier":"US-0901","Elevation":91},"geometry":{"type":"Point","coordinates":[-77.37722,36.04256]}},{"type":"Feature","properties":{"Name":"Mackall Army Air Field","State":"North Carolina","State Abv":"NC","Size":"small_airport","Identifier":"KHFF","Elevation":376},"geometry":{"type":"Point","coordinates":[-79.498615,35.036087]}},{"type":"Feature","properties":{"Name":"Topsail Airpark","State":"North Carolina","State Abv":"NC","Size":"small_airport","Identifier":"01NC","Elevation":65},"geometry":{"type":"Point","coordinates":[-77.58139801,34.47529984]}},{"type":"Feature","properties":{"Name":"Camp Davis Mcolf Airport","State":"North Carolina","State Abv":"NC","Size":"small_airport","Identifier":"14NC","Elevation":60},"geometry":{"type":"Point","coordinates":[-77.55000305,34.51670074]}},{"type":"Feature","properties":{"Name":"Chase Field","State":"North Carolina","State Abv":"NC","Size":"small_airport","Identifier":"58NR","Elevation":56},"geometry":{"type":"Point","coordinates":[-77.597401,35.42527]}},{"type":"Feature","properties":{"Name":"Whitfield Farms Airport","State":"North Carolina","State Abv":"NC","Size":"small_airport","Identifier":"4W4","Elevation":653},"geometry":{"type":"Point","coordinates":[-79.0789032,36.28350067]}},{"type":"Feature","properties":{"Name":"Johnston Farm Airport","State":"North Carolina","State Abv":"NC","Size":"small_airport","Identifier":"10NC","Elevation":60},"geometry":{"type":"Point","coordinates":[-77.50939941,36.3431015]}},{"type":"Feature","properties":{"Name":"Epley Airport","State":"North Carolina","State Abv":"NC","Size":"small_airport","Identifier":"52NC","Elevation":43},"geometry":{"type":"Point","coordinates":[-77.26670074,34.84460068]}},{"type":"Feature","properties":{"Name":"Skyland Airport","State":"North Carolina","State Abv":"NC","Size":"small_airport","Identifier":"NC50","Elevation":2860},"geometry":{"type":"Point","coordinates":[-81.3615036,36.46009827]}},{"type":"Feature","properties":{"Name":"Swan Creek Airport","State":"North Carolina","State Abv":"NC","Size":"small_airport","Identifier":"78A","Elevation":1135},"geometry":{"type":"Point","coordinates":[-80.86810303,36.20240021]}},{"type":"Feature","properties":{"Name":"Kecks Airport","State":"North Carolina","State Abv":"NC","Size":"small_airport","Identifier":"N88","Elevation":724},"geometry":{"type":"Point","coordinates":[-79.62750244,35.92649841]}},{"type":"Feature","properties":{"Name":"Sloop Airport","State":"North Carolina","State Abv":"NC","Size":"small_airport","Identifier":"41NC","Elevation":794},"geometry":{"type":"Point","coordinates":[-80.52200317,35.52180099]}},{"type":"Feature","properties":{"Name":"Ervin Airfield","State":"North Carolina","State Abv":"NC","Size":"small_airport","Identifier":"50NC","Elevation":905},"geometry":{"type":"Point","coordinates":[-80.66860199,35.54499817]}},{"type":"Feature","properties":{"Name":"Wilhelm Airport","State":"North Carolina","State Abv":"NC","Size":"small_airport","Identifier":"6NC2","Elevation":750},"geometry":{"type":"Point","coordinates":[-80.55809784,35.51119995]}},{"type":"Feature","properties":{"Name":"Enochville Airport","State":"North Carolina","State Abv":"NC","Size":"small_airport","Identifier":"NC39","Elevation":789},"geometry":{"type":"Point","coordinates":[-80.64779663,35.52429962]}},{"type":"Feature","properties":{"Name":"Kenly Airport","State":"North Carolina","State Abv":"NC","Size":"small_airport","Identifier":"7NC3","Elevation":225},"geometry":{"type":"Point","coordinates":[-78.098611,35.596389]}},{"type":"Feature","properties":{"Name":"Moss Hill Airport","State":"North Carolina","State Abv":"NC","Size":"small_airport","Identifier":"6NC9","Elevation":30},"geometry":{"type":"Point","coordinates":[-77.75050354,35.20209885]}},{"type":"Feature","properties":{"Name":"Deer Run Airport","State":"North Carolina","State Abv":"NC","Size":"small_airport","Identifier":"NC56","Elevation":405},"geometry":{"type":"Point","coordinates":[-78.46890259,36.20470047]}},{"type":"Feature","properties":{"Name":"Broadway Airfield","State":"North Carolina","State Abv":"NC","Size":"small_airport","Identifier":"44NC","Elevation":650},"geometry":{"type":"Point","coordinates":[-80.65190125,35.54330063]}},{"type":"Feature","properties":{"Name":"Heavenly Acres Airport","State":"North Carolina","State Abv":"NC","Size":"small_airport","Identifier":"NR94","Elevation":1050},"geometry":{"type":"Point","coordinates":[-80.27755,36.522324]}},{"type":"Feature","properties":{"Name":"Winstead '76' Airport","State":"North Carolina","State Abv":"NC","Size":"small_airport","Identifier":"68NC","Elevation":615},"geometry":{"type":"Point","coordinates":[-79.12809753,36.39960098]}},{"type":"Feature","properties":{"Name":"Lanni Field","State":"North Carolina","State Abv":"NC","Size":"small_airport","Identifier":"18NC","Elevation":1160},"geometry":{"type":"Point","coordinates":[-81.61370087,35.88899994]}},{"type":"Feature","properties":{"Name":"Lower Creek Airport","State":"North Carolina","State Abv":"NC","Size":"small_airport","Identifier":"NC27","Elevation":1195},"geometry":{"type":"Point","coordinates":[-81.49009705,35.94459915]}},{"type":"Feature","properties":{"Name":"Whiteheart Farm Airport","State":"North Carolina","State Abv":"NC","Size":"small_airport","Identifier":"08NC","Elevation":750},"geometry":{"type":"Point","coordinates":[-80.46559906,36.06760025]}},{"type":"Feature","properties":{"Name":"Flying M Airport","State":"North Carolina","State Abv":"NC","Size":"small_airport","Identifier":"2NC6","Elevation":845},"geometry":{"type":"Point","coordinates":[-80.39620209,35.79959869]}},{"type":"Feature","properties":{"Name":"Morrison Field","State":"North Carolina","State Abv":"NC","Size":"small_airport","Identifier":"48NC","Elevation":825},"geometry":{"type":"Point","coordinates":[-80.41690063,35.78170013]}},{"type":"Feature","properties":{"Name":"Hinshaw (Greenacres) Airport","State":"North Carolina","State Abv":"NC","Size":"small_airport","Identifier":"N61","Elevation":750},"geometry":{"type":"Point","coordinates":[-79.52749634,35.87369919]}},{"type":"Feature","properties":{"Name":"Loop Field Ultralight Flightpark","State":"North Carolina","State Abv":"NC","Size":"small_airport","Identifier":"NR68","Elevation":305},"geometry":{"type":"Point","coordinates":[-78.940375,35.405597]}},{"type":"Feature","properties":{"Name":"Flyers Airpark","State":"North Carolina","State Abv":"NC","Size":"small_airport","Identifier":"9NC2","Elevation":115},"geometry":{"type":"Point","coordinates":[-78.79640198,35.21820068]}},{"type":"Feature","properties":{"Name":"Windsor Farms Airport","State":"North Carolina","State Abv":"NC","Size":"small_airport","Identifier":"US-0435","Elevation":180},"geometry":{"type":"Point","coordinates":[-78.817261,35.227514]}},{"type":"Feature","properties":{"Name":"Strawberry Ridge Airstrip","State":"North Carolina","State Abv":"NC","Size":"small_airport","Identifier":"US-3408","Elevation":3706},"geometry":{"type":"Point","coordinates":[-82.11058,35.85321]}},{"type":"Feature","properties":{"Name":"Tucker Field","State":"North Carolina","State Abv":"NC","Size":"small_airport","Identifier":"3NC3","Elevation":645},"geometry":{"type":"Point","coordinates":[-80.40750122,35.24689865]}},{"type":"Feature","properties":{"Name":"Reed Mine Airport","State":"North Carolina","State Abv":"NC","Size":"small_airport","Identifier":"US-0847","Elevation":581},"geometry":{"type":"Point","coordinates":[-80.457833,35.299386]}},{"type":"Feature","properties":{"Name":"North Raleigh Airport","State":"North Carolina","State Abv":"NC","Size":"small_airport","Identifier":"00NC","Elevation":348},"geometry":{"type":"Point","coordinates":[-78.37139893,36.08520126]}},{"type":"Feature","properties":{"Name":"Mynatt Field","State":"North Carolina","State Abv":"NC","Size":"small_airport","Identifier":"53NC","Elevation":95},"geometry":{"type":"Point","coordinates":[-79.08059692,34.37810135]}},{"type":"Feature","properties":{"Name":"Sandy Run Acres Airport","State":"North Carolina","State Abv":"NC","Size":"small_airport","Identifier":"9NC6","Elevation":60},"geometry":{"type":"Point","coordinates":[-78.16079712,34.27489853]}},{"type":"Feature","properties":{"Name":"Nocarva Airport","State":"North Carolina","State Abv":"NC","Size":"small_airport","Identifier":"NC10","Elevation":275},"geometry":{"type":"Point","coordinates":[-78.05799866,36.54180145]}},{"type":"Feature","properties":{"Name":"Lindsay Airport","State":"North Carolina","State Abv":"NC","Size":"small_airport","Identifier":"0NC7","Elevation":700},"geometry":{"type":"Point","coordinates":[-79.99614,36.36481]}},{"type":"Feature","properties":{"Name":"Skyline Peak Airport","State":"North Carolina","State Abv":"NC","Size":"small_airport","Identifier":"33NR","Elevation":4548},"geometry":{"type":"Point","coordinates":[-82.515467,35.93897]}},{"type":"Feature","properties":{"Name":"Mc Donald Field","State":"North Carolina","State Abv":"NC","Size":"small_airport","Identifier":"3NC4","Elevation":545},"geometry":{"type":"Point","coordinates":[-80.40899658,35.05350113]}},{"type":"Feature","properties":{"Name":"Brown Field","State":"North Carolina","State Abv":"NC","Size":"small_airport","Identifier":"46NC","Elevation":400},"geometry":{"type":"Point","coordinates":[-80.37329865,34.89279938]}},{"type":"Feature","properties":{"Name":"Parker Field","State":"North Carolina","State Abv":"NC","Size":"small_airport","Identifier":"8NC7","Elevation":40},"geometry":{"type":"Point","coordinates":[-77.27670288,34.93640137]}},{"type":"Feature","properties":{"Name":"Kimrey Airport","State":"North Carolina","State Abv":"NC","Size":"small_airport","Identifier":"7NC6","Elevation":624},"geometry":{"type":"Point","coordinates":[-79.3266983,36.05540085]}},{"type":"Feature","properties":{"Name":"Sugar Valley Airport","State":"North Carolina","State Abv":"NC","Size":"small_airport","Identifier":"31A","Elevation":731},"geometry":{"type":"Point","coordinates":[-80.511595,35.984352]}},{"type":"Feature","properties":{"Name":"Bahnson Airport","State":"North Carolina","State Abv":"NC","Size":"small_airport","Identifier":"43NC","Elevation":810},"geometry":{"type":"Point","coordinates":[-80.5164032,36.02080154]}},{"type":"Feature","properties":{"Name":"Boyd's Hawks Creek Airport","State":"North Carolina","State Abv":"NC","Size":"small_airport","Identifier":"4NC0","Elevation":815},"geometry":{"type":"Point","coordinates":[-80.61620331,35.89849854]}},{"type":"Feature","properties":{"Name":"Tara Airbase Airport","State":"North Carolina","State Abv":"NC","Size":"small_airport","Identifier":"5NC1","Elevation":756},"geometry":{"type":"Point","coordinates":[-80.51229858,35.79320145]}},{"type":"Feature","properties":{"Name":"Mc Gee Field","State":"North Carolina","State Abv":"NC","Size":"small_airport","Identifier":"24NC","Elevation":550},"geometry":{"type":"Point","coordinates":[-80.47499847,35.12720108]}},{"type":"Feature","properties":{"Name":"Edwards Airport","State":"North Carolina","State Abv":"NC","Size":"small_airport","Identifier":"9NC3","Elevation":640},"geometry":{"type":"Point","coordinates":[-80.56639862,35.07080078]}},{"type":"Feature","properties":{"Name":"Atwell Airport","State":"North Carolina","State Abv":"NC","Size":"small_airport","Identifier":"1NC2","Elevation":830},"geometry":{"type":"Point","coordinates":[-80.78939819,35.65470123]}},{"type":"Feature","properties":{"Name":"Clyde Valley Airport","State":"North Carolina","State Abv":"NC","Size":"small_airport","Identifier":"3NC0","Elevation":1100},"geometry":{"type":"Point","coordinates":[-81.71230316,35.69039917]}},{"type":"Feature","properties":{"Name":"Silver Creek Airport","State":"North Carolina","State Abv":"NC","Size":"small_airport","Identifier":"NC52","Elevation":1020},"geometry":{"type":"Point","coordinates":[-81.72899628,35.72850037]}},{"type":"Feature","properties":{"Name":"Jordan Field","State":"North Carolina","State Abv":"NC","Size":"small_airport","Identifier":"NR02","Elevation":600},"geometry":{"type":"Point","coordinates":[-79.995556,35.237778]}},{"type":"Feature","properties":{"Name":"West Airport","State":"North Carolina","State Abv":"NC","Size":"small_airport","Identifier":"US-4617","Elevation":700},"geometry":{"type":"Point","coordinates":[-80.450277,35.429444]}},{"type":"Feature","properties":{"Name":"Wolf Pit Airport","State":"North Carolina","State Abv":"NC","Size":"small_airport","Identifier":"9NR4","Elevation":535},"geometry":{"type":"Point","coordinates":[-80.431461,35.355102]}},{"type":"Feature","properties":{"Name":"Corriher Field","State":"North Carolina","State Abv":"NC","Size":"small_airport","Identifier":"88NC","Elevation":840},"geometry":{"type":"Point","coordinates":[-80.685303,35.6325]}},{"type":"Feature","properties":{"Name":"Blackwater Airstrip","State":"North Carolina","State Abv":"NC","Size":"small_airport","Identifier":"NC61","Elevation":12},"geometry":{"type":"Point","coordinates":[-76.21080017,36.45940018]}},{"type":"Feature","properties":{"Name":"Patton Valley Airport","State":"North Carolina","State Abv":"NC","Size":"small_airport","Identifier":"6NR6","Elevation":1270},"geometry":{"type":"Point","coordinates":[-81.873239,35.662518]}},{"type":"Feature","properties":{"Name":"Canaan Air Base","State":"North Carolina","State Abv":"NC","Size":"small_airport","Identifier":"NC20","Elevation":33},"geometry":{"type":"Point","coordinates":[-77.16246796,35.08727264]}},{"type":"Feature","properties":{"Name":"Circle P Farm Airport","State":"North Carolina","State Abv":"NC","Size":"small_airport","Identifier":"6NC7","Elevation":30},"geometry":{"type":"Point","coordinates":[-76.90609741,34.75139999]}},{"type":"Feature","properties":{"Name":"Ruby's Landing","State":"North Carolina","State Abv":"NC","Size":"small_airport","Identifier":"70NR","Elevation":144},"geometry":{"type":"Point","coordinates":[-78.366777,35.218562]}},{"type":"Feature","properties":{"Name":"Fiddleair Airport","State":"North Carolina","State Abv":"NC","Size":"small_airport","Identifier":"US-6314","Elevation":190},"geometry":{"type":"Point","coordinates":[-78.433865,35.275145]}},{"type":"Feature","properties":{"Name":"DS Butler Farm and Airfield","State":"North Carolina","State Abv":"NC","Size":"small_airport","Identifier":"N83","Elevation":950},"geometry":{"type":"Point","coordinates":[-80.005302,36.195099]}},{"type":"Feature","properties":{"Name":"Hall Field","State":"North Carolina","State Abv":"NC","Size":"small_airport","Identifier":"32NC","Elevation":175},"geometry":{"type":"Point","coordinates":[-79.04309845,34.89640045]}},{"type":"Feature","properties":{"Name":"Southern Comforts Aerodrome","State":"North Carolina","State Abv":"NC","Size":"small_airport","Identifier":"61NC","Elevation":175},"geometry":{"type":"Point","coordinates":[-78.965599,34.8713]}},{"type":"Feature","properties":{"Name":"E T Field","State":"North Carolina","State Abv":"NC","Size":"small_airport","Identifier":"NC71","Elevation":187},"geometry":{"type":"Point","coordinates":[-79.05249786,34.91790009]}},{"type":"Feature","properties":{"Name":"Martindale Executive Airpark","State":"North Carolina","State Abv":"NC","Size":"small_airport","Identifier":"70NC","Elevation":300},"geometry":{"type":"Point","coordinates":[-78.14800262,36.54460144]}},{"type":"Feature","properties":{"Name":"Benton's Airfield","State":"North Carolina","State Abv":"NC","Size":"small_airport","Identifier":"NC36","Elevation":145},"geometry":{"type":"Point","coordinates":[-78.03029633,35.50289917]}},{"type":"Feature","properties":{"Name":"Pink Hill Airport","State":"North Carolina","State Abv":"NC","Size":"small_airport","Identifier":"4W9","Elevation":144},"geometry":{"type":"Point","coordinates":[-77.73609924,35.05070114]}},{"type":"Feature","properties":{"Name":"Ron's Ultralight Field","State":"North Carolina","State Abv":"NC","Size":"small_airport","Identifier":"1NC1","Elevation":525},"geometry":{"type":"Point","coordinates":[-79.23860168,35.81190109]}},{"type":"Feature","properties":{"Name":"Dead Dog Airport","State":"North Carolina","State Abv":"NC","Size":"small_airport","Identifier":"8NC4","Elevation":525},"geometry":{"type":"Point","coordinates":[-79.31279755,35.72990036]}},{"type":"Feature","properties":{"Name":"Eagles Landing Airport","State":"North Carolina","State Abv":"NC","Size":"small_airport","Identifier":"9NC8","Elevation":430},"geometry":{"type":"Point","coordinates":[-79.21880341,35.68690109]}},{"type":"Feature","properties":{"Name":"Fields Airport","State":"North Carolina","State Abv":"NC","Size":"small_airport","Identifier":"64NC","Elevation":820},"geometry":{"type":"Point","coordinates":[-79.77249908,35.90190125]}},{"type":"Feature","properties":{"Name":"Donald's Air Park Inc. Airport","State":"North Carolina","State Abv":"NC","Size":"small_airport","Identifier":"NC7","Elevation":18},"geometry":{"type":"Point","coordinates":[-76.66970062,35.73350143]}},{"type":"Feature","properties":{"Name":"Oak Grove Marine Corps Outlying Field","State":"North Carolina","State Abv":"NC","Size":"small_airport","Identifier":"13NC","Elevation":27},"geometry":{"type":"Point","coordinates":[-77.255945,35.025006]}},{"type":"Feature","properties":{"Name":"Bell Strip","State":"North Carolina","State Abv":"NC","Size":"small_airport","Identifier":"1NC4","Elevation":35},"geometry":{"type":"Point","coordinates":[-77.25769806,34.99539948]}},{"type":"Feature","properties":{"Name":"Eagles Nest Airport","State":"North Carolina","State Abv":"NC","Size":"small_airport","Identifier":"6N9","Elevation":115},"geometry":{"type":"Point","coordinates":[-77.69830322,34.98210144]}},{"type":"Feature","properties":{"Name":"Hinton Field","State":"North Carolina","State Abv":"NC","Size":"small_airport","Identifier":"NC72","Elevation":152},"geometry":{"type":"Point","coordinates":[-78.16000366,35.45149994]}},{"type":"Feature","properties":{"Name":"Viking Airport","State":"North Carolina","State Abv":"NC","Size":"small_airport","Identifier":"94NC","Elevation":295},"geometry":{"type":"Point","coordinates":[-79.261766,35.008988]}},{"type":"Feature","properties":{"Name":"Raeford West Airport","State":"North Carolina","State Abv":"NC","Size":"small_airport","Identifier":"NR20","Elevation":280},"geometry":{"type":"Point","coordinates":[-79.236649,35.030554]}},{"type":"Feature","properties":{"Name":"Dakota Air Ranch Airport","State":"North Carolina","State Abv":"NC","Size":"small_airport","Identifier":"09NR","Elevation":561},"geometry":{"type":"Point","coordinates":[-79.650311,35.650122]}},{"type":"Feature","properties":{"Name":"Double S Airport","State":"North Carolina","State Abv":"NC","Size":"small_airport","Identifier":"19NC","Elevation":195},"geometry":{"type":"Point","coordinates":[-77.92299652,36.06489944]}},{"type":"Feature","properties":{"Name":"Buie Field","State":"North Carolina","State Abv":"NC","Size":"small_airport","Identifier":"9NR8","Elevation":203},"geometry":{"type":"Point","coordinates":[-79.193611,34.793333]}},{"type":"Feature","properties":{"Name":"Warf Airport","State":"North Carolina","State Abv":"NC","Size":"small_airport","Identifier":"6A5","Elevation":820},"geometry":{"type":"Point","coordinates":[-79.709272,36.323474]}},{"type":"Feature","properties":{"Name":"Mountain View Aerodrome","State":"North Carolina","State Abv":"NC","Size":"small_airport","Identifier":"NC37","Elevation":800},"geometry":{"type":"Point","coordinates":[-79.823295,36.338952]}},{"type":"Feature","properties":{"Name":"Allens Airport","State":"North Carolina","State Abv":"NC","Size":"small_airport","Identifier":"US-1003","Elevation":199},"geometry":{"type":"Point","coordinates":[-79.074586,34.974116]}},{"type":"Feature","properties":{"Name":"Brocks Airport","State":"North Carolina","State Abv":"NC","Size":"small_airport","Identifier":"US-0165","Elevation":120},"geometry":{"type":"Point","coordinates":[-78.600145,34.916112]}},{"type":"Feature","properties":{"Name":"Adams Airport","State":"North Carolina","State Abv":"NC","Size":"small_airport","Identifier":"8NC5","Elevation":143},"geometry":{"type":"Point","coordinates":[-79.248828,34.576023]}},{"type":"Feature","properties":{"Name":"Holeman Field","State":"North Carolina","State Abv":"NC","Size":"small_airport","Identifier":"NC40","Elevation":578},"geometry":{"type":"Point","coordinates":[-79.11859894,36.49969864]}},{"type":"Feature","properties":{"Name":"BHH Aviation Airport","State":"North Carolina","State Abv":"NC","Size":"small_airport","Identifier":"US-0423","Elevation":608},"geometry":{"type":"Point","coordinates":[-79.595432,36.476016]}},{"type":"Feature","properties":{"Name":"Fox Haven Plantation Airport","State":"North Carolina","State Abv":"NC","Size":"small_airport","Identifier":"58NC","Elevation":800},"geometry":{"type":"Point","coordinates":[-82.052915,35.348434]}},{"type":"Feature","properties":{"Name":"Dry Pond Airport","State":"North Carolina","State Abv":"NC","Size":"small_airport","Identifier":"28NR","Elevation":1130},"geometry":{"type":"Point","coordinates":[-81.995001,35.3475]}},{"type":"Feature","properties":{"Name":"Triple F Airpark","State":"North Carolina","State Abv":"NC","Size":"small_airport","Identifier":"9NR7","Elevation":148},"geometry":{"type":"Point","coordinates":[-78.565833,35.018333]}},{"type":"Feature","properties":{"Name":"South River Airport","State":"North Carolina","State Abv":"NC","Size":"small_airport","Identifier":"NC93","Elevation":650},"geometry":{"type":"Point","coordinates":[-80.50140381,35.77780151]}},{"type":"Feature","properties":{"Name":"Pineview Air Airport","State":"North Carolina","State Abv":"NC","Size":"small_airport","Identifier":"82NC","Elevation":300},"geometry":{"type":"Point","coordinates":[-79.07330322,35.30810165]}},{"type":"Feature","properties":{"Name":"Moretz Riverside Landing Airport","State":"North Carolina","State Abv":"NC","Size":"small_airport","Identifier":"NC00","Elevation":326},"geometry":{"type":"Point","coordinates":[-79.19360352,35.56000137]}},{"type":"Feature","properties":{"Name":"Scotland Neck East Airport","State":"North Carolina","State Abv":"NC","Size":"small_airport","Identifier":"2NC7","Elevation":103},"geometry":{"type":"Point","coordinates":[-77.39890289,36.16790009]}},{"type":"Feature","properties":{"Name":"Ventosa Plantation Airport","State":"North Carolina","State Abv":"NC","Size":"small_airport","Identifier":"NC66","Elevation":30},"geometry":{"type":"Point","coordinates":[-77.29579926,36.13130188]}},{"type":"Feature","properties":{"Name":"Glover Airport","State":"North Carolina","State Abv":"NC","Size":"small_airport","Identifier":"45NC","Elevation":120},"geometry":{"type":"Point","coordinates":[-77.45469666,36.52809906]}},{"type":"Feature","properties":{"Name":"Dirt Dobber's Grass Strip","State":"North Carolina","State Abv":"NC","Size":"small_airport","Identifier":"NC97","Elevation":930},"geometry":{"type":"Point","coordinates":[-81.522499,35.3689]}},{"type":"Feature","properties":{"Name":"Cleveland Airport","State":"North Carolina","State Abv":"NC","Size":"small_airport","Identifier":"US-5825","Elevation":1023},"geometry":{"type":"Point","coordinates":[-81.62575,35.387]}},{"type":"Feature","properties":{"Name":"Mountain View Airport","State":"North Carolina","State Abv":"NC","Size":"small_airport","Identifier":"20NC","Elevation":1020},"geometry":{"type":"Point","coordinates":[-81.05590057,35.5923996]}},{"type":"Feature","properties":{"Name":"Flint Ridge Airport","State":"North Carolina","State Abv":"NC","Size":"small_airport","Identifier":"22NC","Elevation":650},"geometry":{"type":"Point","coordinates":[-79.4683,35.821098]}},{"type":"Feature","properties":{"Name":"Brooks Field","State":"North Carolina","State Abv":"NC","Size":"small_airport","Identifier":"8NC6","Elevation":620},"geometry":{"type":"Point","coordinates":[-79.40699768,35.6896019]}},{"type":"Feature","properties":{"Name":"Hodges Farm Airport","State":"North Carolina","State Abv":"NC","Size":"small_airport","Identifier":"NC73","Elevation":6},"geometry":{"type":"Point","coordinates":[-76.44940186,35.43880081]}},{"type":"Feature","properties":{"Name":"Winding Creek Airport","State":"North Carolina","State Abv":"NC","Size":"small_airport","Identifier":"8NC3","Elevation":53},"geometry":{"type":"Point","coordinates":[-77.44059753,34.56610107]}},{"type":"Feature","properties":{"Name":"Camp Lejeune LZ Bluebird Airstrip","State":"North Carolina","State Abv":"NC","Size":"small_airport","Identifier":"US-5511","Elevation":17},"geometry":{"type":"Point","coordinates":[-77.31798,34.55317]}},{"type":"Feature","properties":{"Name":"Maxwell Airport","State":"North Carolina","State Abv":"NC","Size":"small_airport","Identifier":"3NC7","Elevation":3050},"geometry":{"type":"Point","coordinates":[-81.13670349,36.51929855]}},{"type":"Feature","properties":{"Name":"Spring Paths Airport","State":"North Carolina","State Abv":"NC","Size":"small_airport","Identifier":"42NC","Elevation":290},"geometry":{"type":"Point","coordinates":[-78.17060089,35.95780182]}},{"type":"Feature","properties":{"Name":"Tailwinds Airport","State":"North Carolina","State Abv":"NC","Size":"small_airport","Identifier":"06NC","Elevation":163},"geometry":{"type":"Point","coordinates":[-78.93029785,34.82749939]}},{"type":"Feature","properties":{"Name":"Stoneriver Airport","State":"North Carolina","State Abv":"NC","Size":"small_airport","Identifier":"NC09","Elevation":820},"geometry":{"type":"Point","coordinates":[-80.77670288,35.88389969]}},{"type":"Feature","properties":{"Name":"Raeford Rhyne Airpark","State":"North Carolina","State Abv":"NC","Size":"small_airport","Identifier":"NC15","Elevation":1140},"geometry":{"type":"Point","coordinates":[-80.97899628,35.95709991]}},{"type":"Feature","properties":{"Name":"Flying Bj Airport","State":"North Carolina","State Abv":"NC","Size":"small_airport","Identifier":"3NC5","Elevation":1000},"geometry":{"type":"Point","coordinates":[-81.06999969,35.81219864]}},{"type":"Feature","properties":{"Name":"Bear Pen Airport","State":"North Carolina","State Abv":"NC","Size":"small_airport","Identifier":"NC43","Elevation":63},"geometry":{"type":"Point","coordinates":[-78.33809662,34.12519836]}},{"type":"Feature","properties":{"Name":"Bogue Field Mcalf Airport","State":"North Carolina","State Abv":"NC","Size":"small_airport","Identifier":"KNJM","Elevation":21},"geometry":{"type":"Point","coordinates":[-77.02970123,34.69039917]}},{"type":"Feature","properties":{"Name":"Cox Field","State":"North Carolina","State Abv":"NC","Size":"small_airport","Identifier":"81NC","Elevation":50},"geometry":{"type":"Point","coordinates":[-78.73999786,34.04083252]}},{"type":"Feature","properties":{"Name":"Brown Airport","State":"North Carolina","State Abv":"NC","Size":"small_airport","Identifier":"6NC4","Elevation":1170},"geometry":{"type":"Point","coordinates":[-81.139503,35.905701]}},{"type":"Feature","properties":{"Name":"Gryder-Teague Airport","State":"North Carolina","State Abv":"NC","Size":"small_airport","Identifier":"NC58","Elevation":1190},"geometry":{"type":"Point","coordinates":[-81.11942,35.918656]}},{"type":"Feature","properties":{"Name":"Alexander County Airport","State":"North Carolina","State Abv":"NC","Size":"small_airport","Identifier":"NC59","Elevation":1110},"geometry":{"type":"Point","coordinates":[-81.14399719,35.85070038]}},{"type":"Feature","properties":{"Name":"Southern Skies Airstrip","State":"North Carolina","State Abv":"NC","Size":"small_airport","Identifier":"NR04","Elevation":1180},"geometry":{"type":"Point","coordinates":[-81.173056,35.960278]}},{"type":"Feature","properties":{"Name":"Hiatt Airport","State":"North Carolina","State Abv":"NC","Size":"small_airport","Identifier":"N97","Elevation":855},"geometry":{"type":"Point","coordinates":[-80.10749817,35.83010101]}},{"type":"Feature","properties":{"Name":"Quiet Acres Airport","State":"North Carolina","State Abv":"NC","Size":"small_airport","Identifier":"NC31","Elevation":740},"geometry":{"type":"Point","coordinates":[-80.02420044,35.76490021]}},{"type":"Feature","properties":{"Name":"Suter Field","State":"North Carolina","State Abv":"NC","Size":"small_airport","Identifier":"NR37","Elevation":35},"geometry":{"type":"Point","coordinates":[-77.462266,35.057099]}},{"type":"Feature","properties":{"Name":"Wheat Field","State":"North Carolina","State Abv":"NC","Size":"small_airport","Identifier":"56NC","Elevation":960},"geometry":{"type":"Point","coordinates":[-82.0318985,35.20669937]}},{"type":"Feature","properties":{"Name":"Luzon Drop Zone Airfield","State":"North Carolina","State Abv":"NC","Size":"small_airport","Identifier":"US-5642","Elevation":346},"geometry":{"type":"Point","coordinates":[-79.46216,35.0123]}},{"type":"Feature","properties":{"Name":"Safe Field","State":"North Carolina","State Abv":"NC","Size":"small_airport","Identifier":"NC48","Elevation":50},"geometry":{"type":"Point","coordinates":[-78.05999756,34.75019836]}},{"type":"Feature","properties":{"Name":"Lewis Airstrip","State":"North Carolina","State Abv":"NC","Size":"small_airport","Identifier":"7NC7","Elevation":650},"geometry":{"type":"Point","coordinates":[-80.17412,36.37983]}},{"type":"Feature","properties":{"Name":"Meadow Brook Field","State":"North Carolina","State Abv":"NC","Size":"small_airport","Identifier":"N63","Elevation":631},"geometry":{"type":"Point","coordinates":[-80.14839935,36.30149841]}},{"type":"Feature","properties":{"Name":"Dusenbury Field","State":"North Carolina","State Abv":"NC","Size":"small_airport","Identifier":"13NR","Elevation":646},"geometry":{"type":"Point","coordinates":[-80.16207,36.297634]}},{"type":"Feature","properties":{"Name":"Hawks Meadow Airport","State":"North Carolina","State Abv":"NC","Size":"small_airport","Identifier":"07NC","Elevation":625},"geometry":{"type":"Point","coordinates":[-80.75119781,34.83319855]}},{"type":"Feature","properties":{"Name":"Hawk's Knoll Airport","State":"North Carolina","State Abv":"NC","Size":"small_airport","Identifier":"2NC1","Elevation":695},"geometry":{"type":"Point","coordinates":[-80.80090332,34.99739838]}},{"type":"Feature","properties":{"Name":"Aero Plantation Airport","State":"North Carolina","State Abv":"NC","Size":"small_airport","Identifier":"NC21","Elevation":634},"geometry":{"type":"Point","coordinates":[-80.74839783,34.9917984]}},{"type":"Feature","properties":{"Name":"Benton Farm Airport","State":"North Carolina","State Abv":"NC","Size":"small_airport","Identifier":"74NC","Elevation":9},"geometry":{"type":"Point","coordinates":[-76.62969971,35.09640121]}},{"type":"Feature","properties":{"Name":"Thompson Farms Airport","State":"North Carolina","State Abv":"NC","Size":"small_airport","Identifier":"6NC5","Elevation":100},"geometry":{"type":"Point","coordinates":[-77.66190338,36.01789856]}},{"type":"Feature","properties":{"Name":"Rocking A Farm Airport","State":"North Carolina","State Abv":"NC","Size":"small_airport","Identifier":"NC86","Elevation":58},"geometry":{"type":"Point","coordinates":[-78.75309753,34.73360062]}},{"type":"Feature","properties":{"Name":"Reagans Roost Ultralightport","State":"North Carolina","State Abv":"NC","Size":"small_airport","Identifier":"85NC","Elevation":2080},"geometry":{"type":"Point","coordinates":[-83.16680145,35.42919922]}},{"type":"Feature","properties":{"Name":"Dillard Airport","State":"North Carolina","State Abv":"NC","Size":"small_airport","Identifier":"54NC","Elevation":15},"geometry":{"type":"Point","coordinates":[-76.41719818,36.23939896]}},{"type":"Feature","properties":{"Name":"Arant Airport","State":"North Carolina","State Abv":"NC","Size":"small_airport","Identifier":"1NC6","Elevation":535},"geometry":{"type":"Point","coordinates":[-80.45010376,35.05599976]}},{"type":"Feature","properties":{"Name":"Winnabow Airport","State":"North Carolina","State Abv":"NC","Size":"small_airport","Identifier":"77NC","Elevation":33},"geometry":{"type":"Point","coordinates":[-78.10549927,34.15209961]}},{"type":"Feature","properties":{"Name":"Robertson Field","State":"North Carolina","State Abv":"NC","Size":"small_airport","Identifier":"NC63","Elevation":848},"geometry":{"type":"Point","coordinates":[-80.18479919,36.13510132]}},{"type":"Feature","properties":{"Name":"South Oaks Aerodrome","State":"North Carolina","State Abv":"NC","Size":"small_airport","Identifier":"NC47","Elevation":50},"geometry":{"type":"Point","coordinates":[-77.355904,35.482164]}},{"type":"Feature","properties":{"Name":"Lone Hickory Airport","State":"North Carolina","State Abv":"NC","Size":"small_airport","Identifier":"80C","Elevation":1000},"geometry":{"type":"Point","coordinates":[-80.69016,36.060444]}},{"type":"Feature","properties":{"Name":"Piney Ridge Airport","State":"North Carolina","State Abv":"NC","Size":"small_airport","Identifier":"NC42","Elevation":960},"geometry":{"type":"Point","coordinates":[-80.69979858,36.07210159]}},{"type":"Feature","properties":{"Name":"Caswell Airport","State":"North Carolina","State Abv":"NC","Size":"small_airport","Identifier":"6W4","Elevation":648},"geometry":{"type":"Point","coordinates":[-79.39279938,36.39970016]}},{"type":"Feature","properties":{"Name":"Phillip R Bunn Airport","State":"North Carolina","State Abv":"NC","Size":"small_airport","Identifier":"51NC","Elevation":355},"geometry":{"type":"Point","coordinates":[-78.348602,35.8619001]}},{"type":"Feature","properties":{"Name":"Bell Mountain Airport","State":"North Carolina","State Abv":"NC","Size":"small_airport","Identifier":"08NR","Elevation":2150},"geometry":{"type":"Point","coordinates":[-82.426,35.217541]}}]}